{
"type": "FeatureCollection",
"name": "Monuments_liste",
"crs": { "type": "name", "properties": { "name": "urn:ogc:def:crs:OGC:1.3:CRS84" } },
"features": [
{ "type": "Feature", "properties": { "id": null, "nom": "La Grande Muraille", "latitude": null, "longitude": null }, "geometry": { "type": "Point", "coordinates": [ 116.292896788904955, 40.519911894131724 ] } },
{ "type": "Feature", "properties": { "id": null, "nom": "Le Taj Mahal", "latitude": null, "longitude": null }, "geometry": { "type": "Point", "coordinates": [ 78.042146267828002, 27.175193302178805 ] } },
{ "type": "Feature", "properties": { "id": null, "nom": "La Basilique Saint-Pierre", "latitude": null, "longitude": null }, "geometry": { "type": "Point", "coordinates": [ 12.453933445428515, 41.902274429542857 ] } },
{ "type": "Feature", "properties": { "id": null, "nom": "La Statue de la Liberté", "latitude": null, "longitude": null }, "geometry": { "type": "Point", "coordinates": [ -74.044501129960665, 40.689248021702397 ] } },
{ "type": "Feature", "properties": { "id": null, "nom": "La Basilique de la Sagrada Familia", "latitude": null, "longitude": null }, "geometry": { "type": "Point", "coordinates": [ 2.174359739760461, 41.403619318306184 ] } },
{ "type": "Feature", "properties": { "id": null, "nom": "Le Colisée", "latitude": null, "longitude": null }, "geometry": { "type": "Point", "coordinates": [ 12.492230069790716, 41.890213092089105 ] } },
{ "type": "Feature", "properties": { "id": null, "nom": "La Tour Eiffel", "latitude": null, "longitude": null }, "geometry": { "type": "Point", "coordinates": [ 2.29447974077931, 48.858359109854106 ] } },
{ "type": "Feature", "properties": { "id": null, "nom": "Le Machu Picchu", "latitude": null, "longitude": null }, "geometry": { "type": "Point", "coordinates": [ -72.546397895337776, -13.156048819729145 ] } },
{ "type": "Feature", "properties": { "id": null, "nom": "La Porte de la Justice", "latitude": null, "longitude": null }, "geometry": { "type": "Point", "coordinates": [ -3.590271782969236, 37.176175031460602 ] } },
{ "type": "Feature", "properties": { "id": null, "nom": "La cité interdite", "latitude": null, "longitude": null }, "geometry": { "type": "Point", "coordinates": [ 116.397025539398811, 39.917947337906213 ] } },
{ "type": "Feature", "properties": { "id": null, "nom": "La Cathédrale Notre-Dame", "latitude": null, "longitude": null }, "geometry": { "type": "Point", "coordinates": [ 2.349880792861064, 48.852972446043466 ] } },
{ "type": "Feature", "properties": { "id": null, "nom": "La Statue du Christ Rédempteur", "latitude": null, "longitude": null }, "geometry": { "type": "Point", "coordinates": [ -43.210484509447113, -22.951887942738797 ] } },
{ "type": "Feature", "properties": { "id": null, "nom": "Le Palais de Westminster", "latitude": null, "longitude": null }, "geometry": { "type": "Point", "coordinates": [ -0.124800023676182, 51.499472971423884 ] } },
{ "type": "Feature", "properties": { "id": null, "nom": "La Salle T211", "latitude": null, "longitude": null }, "geometry": { "type": "Point", "coordinates": [ -1.702778476892901, 48.11854019343474 ] } },
{ "type": "Feature", "properties": { "id": null, "nom": "La Tour de Pise", "latitude": null, "longitude": null }, "geometry": { "type": "Point", "coordinates": [ 10.396593878456386, 43.72295290852945 ] } },
{ "type": "Feature", "properties": { "id": null, "nom": "Le Palais impérial Kōkyo", "latitude": null, "longitude": null }, "geometry": { "type": "Point", "coordinates": [ 139.752799397607362, 35.685186018770551 ] } },
{ "type": "Feature", "properties": { "id": null, "nom": "La Basilique Saint-Marc", "latitude": null, "longitude": null }, "geometry": { "type": "Point", "coordinates": [ 12.339711397858879, 45.434564127395646 ] } },
{ "type": "Feature", "properties": { "id": null, "nom": "La Cathédrale Saint-Basile", "latitude": null, "longitude": null }, "geometry": { "type": "Point", "coordinates": [ 37.623085604061437, 55.752516112892948 ] } },
{ "type": "Feature", "properties": { "id": null, "nom": "Le Palais de Topkapi", "latitude": null, "longitude": null }, "geometry": { "type": "Point", "coordinates": [ 28.984822369205588, 41.011928802162181 ] } },
{ "type": "Feature", "properties": { "id": null, "nom": "Le Palais de Buckingham", "latitude": null, "longitude": null }, "geometry": { "type": "Point", "coordinates": [ -0.14188673075579, 51.50136736495854 ] } },
{ "type": "Feature", "properties": { "id": null, "nom": "Le Musée du Louvre", "latitude": null, "longitude": null }, "geometry": { "type": "Point", "coordinates": [ 2.337639032508118, 48.86062989484909 ] } },
{ "type": "Feature", "properties": { "id": null, "nom": "Le Château de Neuschwanstein", "latitude": null, "longitude": null }, "geometry": { "type": "Point", "coordinates": [ 10.749811115476779, 47.557596005824607 ] } },
{ "type": "Feature", "properties": { "id": null, "nom": "Le Kremlin", "latitude": null, "longitude": null }, "geometry": { "type": "Point", "coordinates": [ 37.617576804975876, 55.750952915062442 ] } },
{ "type": "Feature", "properties": { "id": null, "nom": "Le Pont des Martyrs du 15-Juillet", "latitude": null, "longitude": null }, "geometry": { "type": "Point", "coordinates": [ 29.034069168622601, 41.045800750680982 ] } },
{ "type": "Feature", "properties": { "id": null, "nom": "Les Pyramides de Gizeh", "latitude": null, "longitude": null }, "geometry": { "type": "Point", "coordinates": [ 31.132465942023721, 29.977304228483199 ] } },
{ "type": "Feature", "properties": { "id": null, "nom": "Le Palais du Potala", "latitude": null, "longitude": null }, "geometry": { "type": "Point", "coordinates": [ 91.118582099580507, 29.655500533851388 ] } },
{ "type": "Feature", "properties": { "id": null, "nom": "Le Mont Rushmore", "latitude": null, "longitude": null }, "geometry": { "type": "Point", "coordinates": [ -103.459092455152202, 43.87880716275864 ] } },
{ "type": "Feature", "properties": { "id": null, "nom": "Le Pont Charles", "latitude": null, "longitude": null }, "geometry": { "type": "Point", "coordinates": [ 14.411421650091693, 50.086487438510652 ] } },
{ "type": "Feature", "properties": { "id": null, "nom": "La Cathédrale Saint-Paul", "latitude": null, "longitude": null }, "geometry": { "type": "Point", "coordinates": [ -0.098343973603084, 51.513862160218245 ] } },
{ "type": "Feature", "properties": { "id": null, "nom": "Le Palais Royal d’Amsterdam", "latitude": null, "longitude": null }, "geometry": { "type": "Point", "coordinates": [ 4.891377539765196, 52.373200721672688 ] } },
{ "type": "Feature", "properties": { "id": null, "nom": "Le Château de Prague", "latitude": null, "longitude": null }, "geometry": { "type": "Point", "coordinates": [ 14.401616633735223, 50.091095371946508 ] } },
{ "type": "Feature", "properties": { "id": null, "nom": "Le Phare d'Alexandrie", "latitude": null, "longitude": null }, "geometry": { "type": "Point", "coordinates": [ 29.885758259334633, 31.21385975580727 ] } },
{ "type": "Feature", "properties": { "id": null, "nom": "La Basilique Sainte-Sophie", "latitude": null, "longitude": null }, "geometry": { "type": "Point", "coordinates": [ 28.979864080989849, 41.00839389419771 ] } },
{ "type": "Feature", "properties": { "id": null, "nom": "La Cathédrale Saint-Alexandre-Nevski", "latitude": null, "longitude": null }, "geometry": { "type": "Point", "coordinates": [ 38.966997269544656, 45.01430861129024 ] } },
{ "type": "Feature", "properties": { "id": null, "nom": "La Maison Blanche", "latitude": null, "longitude": null }, "geometry": { "type": "Point", "coordinates": [ -77.036532620018761, 38.897666005945069 ] } },
{ "type": "Feature", "properties": { "id": null, "nom": "Le Château de Chenonceaux", "latitude": null, "longitude": null }, "geometry": { "type": "Point", "coordinates": [ 1.070306472515242, 47.32484657732531 ] } },
{ "type": "Feature", "properties": { "id": null, "nom": "Le Palais d’Eté", "latitude": null, "longitude": null }, "geometry": { "type": "Point", "coordinates": [ 116.275521350212401, 39.999968494117866 ] } },
{ "type": "Feature", "properties": { "id": null, "nom": "Le Parthénon", "latitude": null, "longitude": null }, "geometry": { "type": "Point", "coordinates": [ 23.726718673013487, 37.971564318585791 ] } },
{ "type": "Feature", "properties": { "id": null, "nom": "Le Palais de la Bahia", "latitude": null, "longitude": null }, "geometry": { "type": "Point", "coordinates": [ -7.981967024063483, 31.62170790936484 ] } },
{ "type": "Feature", "properties": { "id": null, "nom": "La Cathédrale de Cologne", "latitude": null, "longitude": null }, "geometry": { "type": "Point", "coordinates": [ 6.958275837800072, 50.941296026868137 ] } },
{ "type": "Feature", "properties": { "id": null, "nom": "La Grotte de Lascaux", "latitude": null, "longitude": null }, "geometry": { "type": "Point", "coordinates": [ 1.168210017855904, 45.053933002516075 ] } },
{ "type": "Feature", "properties": { "id": null, "nom": "La Porte de Brandebourg", "latitude": null, "longitude": null }, "geometry": { "type": "Point", "coordinates": [ 13.377682515325128, 52.516309909692417 ] } },
{ "type": "Feature", "properties": { "id": null, "nom": "Le Duomo de Milan", "latitude": null, "longitude": null }, "geometry": { "type": "Point", "coordinates": [ 9.191930265677904, 45.464120933897739 ] } },
{ "type": "Feature", "properties": { "id": null, "nom": "Le pont de Mostar", "latitude": null, "longitude": null }, "geometry": { "type": "Point", "coordinates": [ 17.810588931446173, 43.344003703206397 ] } },
{ "type": "Feature", "properties": { "id": null, "nom": "La Casa Mila", "latitude": null, "longitude": null }, "geometry": { "type": "Point", "coordinates": [ 2.161909348032816, 41.395237907221244 ] } },
{ "type": "Feature", "properties": { "id": null, "nom": "Le Palais de Pena", "latitude": null, "longitude": null }, "geometry": { "type": "Point", "coordinates": [ -9.390604110591781, 38.787587840207514 ] } },
{ "type": "Feature", "properties": { "id": null, "nom": "Chichen Itza", "latitude": null, "longitude": null }, "geometry": { "type": "Point", "coordinates": [ -88.567785558096858, 20.68428686182413 ] } },
{ "type": "Feature", "properties": { "id": null, "nom": "Palais royal de Bangkok", "latitude": null, "longitude": null }, "geometry": { "type": "Point", "coordinates": [ 100.4915737179481, 13.749871104206459 ] } },
{ "type": "Feature", "properties": { "id": null, "nom": "La tour Burj Khalifa", "latitude": null, "longitude": null }, "geometry": { "type": "Point", "coordinates": [ 55.274354285349851, 25.197215869630575 ] } },
{ "type": "Feature", "properties": { "id": null, "nom": "Angkor Vat", "latitude": null, "longitude": null }, "geometry": { "type": "Point", "coordinates": [ 103.867006766428943, 13.412569487160381 ] } },
{ "type": "Feature", "properties": { "id": null, "nom": "Pétra", "latitude": null, "longitude": null }, "geometry": { "type": "Point", "coordinates": [ 35.444361829733367, 30.328456166308339 ] } }
]
}
