{
"type": "FeatureCollection",
"name": "Monuments_liste",
"crs": { "type": "name", "properties": { "name": "urn:ogc:def:crs:OGC:1.3:CRS84" } },
"features": [
{ "type": "Feature", "properties": { "id": "0", "nom": "La Grande Muraille", "latitude": "116.29289678890495", "longitude": "40.519911894131724" }, "geometry": { "type": "Point", "coordinates": [ 116.292896788904955, 40.519911894131724 ] } },
{ "type": "Feature", "properties": { "id": "1", "nom": "Le Taj Mahal", "latitude": "78.042146267828", "longitude": "27.175193302178805" }, "geometry": { "type": "Point", "coordinates": [ 78.042146267828002, 27.175193302178805 ] } },
{ "type": "Feature", "properties": { "id": "2", "nom": "La Basilique Saint-Pierre", "latitude": "12.453933445428515", "longitude": "41.90227442954286" }, "geometry": { "type": "Point", "coordinates": [ 12.453933445428515, 41.902274429542857 ] } },
{ "type": "Feature", "properties": { "id": "3", "nom": "La Statue de la Liberté", "latitude": "-74.04450112996066", "longitude": "40.6892480217024" }, "geometry": { "type": "Point", "coordinates": [ -74.044501129960665, 40.689248021702397 ] } },
{ "type": "Feature", "properties": { "id": "4", "nom": "La Basilique de la Sagrada Familia", "latitude": "2.174359739760461", "longitude": "41.403619318306184" }, "geometry": { "type": "Point", "coordinates": [ 2.174359739760461, 41.403619318306184 ] } },
{ "type": "Feature", "properties": { "id": "5", "nom": "Le Colisée", "latitude": "12.492230069790716", "longitude": "41.890213092089105" }, "geometry": { "type": "Point", "coordinates": [ 12.492230069790716, 41.890213092089105 ] } },
{ "type": "Feature", "properties": { "id": "6", "nom": "La Tour Eiffel", "latitude": "2.29447974077931", "longitude": "48.858359109854106" }, "geometry": { "type": "Point", "coordinates": [ 2.29447974077931, 48.858359109854106 ] } },
{ "type": "Feature", "properties": { "id": "7", "nom": "Le Machu Picchu", "latitude": "-72.54639789533778", "longitude": "-13.156048819729145" }, "geometry": { "type": "Point", "coordinates": [ -72.546397895337776, -13.156048819729145 ] } },
{ "type": "Feature", "properties": { "id": "8", "nom": "La Porte de la Justice", "latitude": "-3.590271782969236", "longitude": "37.1761750314606" }, "geometry": { "type": "Point", "coordinates": [ -3.590271782969236, 37.176175031460602 ] } },
{ "type": "Feature", "properties": { "id": "9", "nom": "La cité interdite", "latitude": "116.39702553939881", "longitude": "39.91794733790621" }, "geometry": { "type": "Point", "coordinates": [ 116.397025539398811, 39.917947337906213 ] } },
{ "type": "Feature", "properties": { "id": "10", "nom": "La Cathédrale Notre-Dame", "latitude": "2.349880792861064", "longitude": "48.85297244604347" }, "geometry": { "type": "Point", "coordinates": [ 2.349880792861064, 48.852972446043466 ] } },
{ "type": "Feature", "properties": { "id": "11", "nom": "La Statue du Christ Rédempteur", "latitude": "-43.21048450944711", "longitude": "-22.951887942738797" }, "geometry": { "type": "Point", "coordinates": [ -43.210484509447113, -22.951887942738797 ] } },
{ "type": "Feature", "properties": { "id": "12", "nom": "Le Palais de Westminster", "latitude": "-0.124800023676182", "longitude": "51.499472971423884" }, "geometry": { "type": "Point", "coordinates": [ -0.124800023676182, 51.499472971423884 ] } },
{ "type": "Feature", "properties": { "id": "13", "nom": "La Salle T211", "latitude": "-1.702778476892901", "longitude": "48.11854019343474" }, "geometry": { "type": "Point", "coordinates": [ -1.702778476892901, 48.11854019343474 ] } },
{ "type": "Feature", "properties": { "id": "14", "nom": "La Tour de Pise", "latitude": "10.396593878456386", "longitude": "43.72295290852945" }, "geometry": { "type": "Point", "coordinates": [ 10.396593878456386, 43.72295290852945 ] } },
{ "type": "Feature", "properties": { "id": "15", "nom": "Le Palais impérial Kōkyo", "latitude": "139.75279939760736", "longitude": "35.68518601877055" }, "geometry": { "type": "Point", "coordinates": [ 139.752799397607362, 35.685186018770551 ] } },
{ "type": "Feature", "properties": { "id": "16", "nom": "La Basilique Saint-Marc", "latitude": "12.33971139785888", "longitude": "45.434564127395646" }, "geometry": { "type": "Point", "coordinates": [ 12.339711397858879, 45.434564127395646 ] } },
{ "type": "Feature", "properties": { "id": "17", "nom": "La Cathédrale Saint-Basile", "latitude": "37.62308560406144", "longitude": "55.75251611289295" }, "geometry": { "type": "Point", "coordinates": [ 37.623085604061437, 55.752516112892948 ] } },
{ "type": "Feature", "properties": { "id": "18", "nom": "Le Palais de Topkapi", "latitude": "28.984822369205588", "longitude": "41.01192880216218" }, "geometry": { "type": "Point", "coordinates": [ 28.984822369205588, 41.011928802162181 ] } },
{ "type": "Feature", "properties": { "id": "19", "nom": "Le Palais de Buckingham", "latitude": "-0.14188673075579", "longitude": "51.50136736495854" }, "geometry": { "type": "Point", "coordinates": [ -0.14188673075579, 51.50136736495854 ] } },
{ "type": "Feature", "properties": { "id": "20", "nom": "Le Musée du Louvre", "latitude": "2.337639032508118", "longitude": "48.86062989484909" }, "geometry": { "type": "Point", "coordinates": [ 2.337639032508118, 48.86062989484909 ] } },
{ "type": "Feature", "properties": { "id": "21", "nom": "Le Château de Neuschwanstein", "latitude": "10.74981111547678", "longitude": "47.55759600582461" }, "geometry": { "type": "Point", "coordinates": [ 10.749811115476779, 47.557596005824607 ] } },
{ "type": "Feature", "properties": { "id": "22", "nom": "Le Kremlin", "latitude": "37.617576804975876", "longitude": "55.75095291506244" }, "geometry": { "type": "Point", "coordinates": [ 37.617576804975876, 55.750952915062442 ] } },
{ "type": "Feature", "properties": { "id": "23", "nom": "Le Pont des Martyrs du 15-Juillet", "latitude": "29.0340691686226", "longitude": "41.04580075068098" }, "geometry": { "type": "Point", "coordinates": [ 29.034069168622601, 41.045800750680982 ] } },
{ "type": "Feature", "properties": { "id": "24", "nom": "Les Pyramides de Gizeh", "latitude": "31.13246594202372", "longitude": "29.9773042284832" }, "geometry": { "type": "Point", "coordinates": [ 31.132465942023721, 29.977304228483199 ] } },
{ "type": "Feature", "properties": { "id": "25", "nom": "Le Palais du Potala", "latitude": "91.11858209958051", "longitude": "29.655500533851388" }, "geometry": { "type": "Point", "coordinates": [ 91.118582099580507, 29.655500533851388 ] } },
{ "type": "Feature", "properties": { "id": "26", "nom": "Le Mont Rushmore", "latitude": "-103.4590924551522", "longitude": "43.87880716275864" }, "geometry": { "type": "Point", "coordinates": [ -103.459092455152202, 43.87880716275864 ] } },
{ "type": "Feature", "properties": { "id": "27", "nom": "Le Pont Charles", "latitude": "14.411421650091693", "longitude": "50.08648743851065" }, "geometry": { "type": "Point", "coordinates": [ 14.411421650091693, 50.086487438510652 ] } },
{ "type": "Feature", "properties": { "id": "28", "nom": "La Cathédrale Saint-Paul", "latitude": "-0.098343973603084", "longitude": "51.513862160218245" }, "geometry": { "type": "Point", "coordinates": [ -0.098343973603084, 51.513862160218245 ] } },
{ "type": "Feature", "properties": { "id": "29", "nom": "Le Palais Royal d’Amsterdam", "latitude": "4.891377539765196", "longitude": "52.37320072167269" }, "geometry": { "type": "Point", "coordinates": [ 4.891377539765196, 52.373200721672688 ] } },
{ "type": "Feature", "properties": { "id": "30", "nom": "Le Château de Prague", "latitude": "14.401616633735223", "longitude": "50.09109537194651" }, "geometry": { "type": "Point", "coordinates": [ 14.401616633735223, 50.091095371946508 ] } },
{ "type": "Feature", "properties": { "id": "31", "nom": "Le Phare d'Alexandrie", "latitude": "29.885758259334633", "longitude": "31.21385975580727" }, "geometry": { "type": "Point", "coordinates": [ 29.885758259334633, 31.21385975580727 ] } },
{ "type": "Feature", "properties": { "id": "32", "nom": "La Basilique Sainte-Sophie", "latitude": "28.97986408098985", "longitude": "41.00839389419771" }, "geometry": { "type": "Point", "coordinates": [ 28.979864080989849, 41.00839389419771 ] } },
{ "type": "Feature", "properties": { "id": "33", "nom": "La Cathédrale Saint-Alexandre-Nevski", "latitude": "38.966997269544656", "longitude": "45.01430861129024" }, "geometry": { "type": "Point", "coordinates": [ 38.966997269544656, 45.01430861129024 ] } },
{ "type": "Feature", "properties": { "id": "34", "nom": "La Maison Blanche", "latitude": "-77.03653262001876", "longitude": "38.89766600594507" }, "geometry": { "type": "Point", "coordinates": [ -77.036532620018761, 38.897666005945069 ] } },
{ "type": "Feature", "properties": { "id": "35", "nom": "Le Château de Chenonceaux", "latitude": "1.070306472515242", "longitude": "47.32484657732531" }, "geometry": { "type": "Point", "coordinates": [ 1.070306472515242, 47.32484657732531 ] } },
{ "type": "Feature", "properties": { "id": "36", "nom": "Le Palais d’Eté", "latitude": "116.2755213502124", "longitude": "39.999968494117866" }, "geometry": { "type": "Point", "coordinates": [ 116.275521350212401, 39.999968494117866 ] } },
{ "type": "Feature", "properties": { "id": "37", "nom": "Le Parthénon", "latitude": "23.726718673013487", "longitude": "37.97156431858579" }, "geometry": { "type": "Point", "coordinates": [ 23.726718673013487, 37.971564318585791 ] } },
{ "type": "Feature", "properties": { "id": "38", "nom": "Le Palais de la Bahia", "latitude": "-7.981967024063483", "longitude": "31.62170790936484" }, "geometry": { "type": "Point", "coordinates": [ -7.981967024063483, 31.62170790936484 ] } },
{ "type": "Feature", "properties": { "id": "39", "nom": "La Cathédrale de Cologne", "latitude": "6.958275837800072", "longitude": "50.94129602686814" }, "geometry": { "type": "Point", "coordinates": [ 6.958275837800072, 50.941296026868137 ] } },
{ "type": "Feature", "properties": { "id": "40", "nom": "La Grotte de Lascaux", "latitude": "1.168210017855904", "longitude": "45.053933002516075" }, "geometry": { "type": "Point", "coordinates": [ 1.168210017855904, 45.053933002516075 ] } },
{ "type": "Feature", "properties": { "id": "41", "nom": "La Porte de Brandebourg", "latitude": "13.377682515325128", "longitude": "52.51630990969242" }, "geometry": { "type": "Point", "coordinates": [ 13.377682515325128, 52.516309909692417 ] } },
{ "type": "Feature", "properties": { "id": "42", "nom": "Le Duomo de Milan", "latitude": "9.191930265677904", "longitude": "45.46412093389774" }, "geometry": { "type": "Point", "coordinates": [ 9.191930265677904, 45.464120933897739 ] } },
{ "type": "Feature", "properties": { "id": "43", "nom": "Le pont de Mostar", "latitude": "17.810588931446173", "longitude": "43.3440037032064" }, "geometry": { "type": "Point", "coordinates": [ 17.810588931446173, 43.344003703206397 ] } },
{ "type": "Feature", "properties": { "id": "44", "nom": "La Casa Mila", "latitude": "2.161909348032816", "longitude": "41.395237907221244" }, "geometry": { "type": "Point", "coordinates": [ 2.161909348032816, 41.395237907221244 ] } },
{ "type": "Feature", "properties": { "id": "45", "nom": "Le Palais de Pena", "latitude": "-9.39060411059178", "longitude": "38.787587840207514" }, "geometry": { "type": "Point", "coordinates": [ -9.390604110591781, 38.787587840207514 ] } },
{ "type": "Feature", "properties": { "id": "46", "nom": "Chichen Itza", "latitude": "-88.56778555809686", "longitude": "20.68428686182413" }, "geometry": { "type": "Point", "coordinates": [ -88.567785558096858, 20.68428686182413 ] } },
{ "type": "Feature", "properties": { "id": "47", "nom": "Palais royal de Bangkok", "latitude": "100.4915737179481", "longitude": "13.74987110420646" }, "geometry": { "type": "Point", "coordinates": [ 100.4915737179481, 13.749871104206459 ] } },
{ "type": "Feature", "properties": { "id": "48", "nom": "La tour Burj Khalifa", "latitude": "55.27435428534985", "longitude": "25.197215869630575" }, "geometry": { "type": "Point", "coordinates": [ 55.274354285349851, 25.197215869630575 ] } },
{ "type": "Feature", "properties": { "id": "49", "nom": "Angkor Vat", "latitude": "103.86700676642894", "longitude": "13.41256948716038" }, "geometry": { "type": "Point", "coordinates": [ 103.867006766428943, 13.412569487160381 ] } },
{ "type": "Feature", "properties": { "id": "50", "nom": "Pétra", "latitude": "35.44436182973337", "longitude": "30.32845616630834" }, "geometry": { "type": "Point", "coordinates": [ 35.444361829733367, 30.328456166308339 ] } }
]
}
